{"type":"FeatureCollection","features":[{"type":"Feature","properties":{"Name":"Pilot Mountain State Park"},"geometry":{"type":"Point","coordinates":[-80.47579671066431,36.307988600593646]}},{"type":"Feature","properties":{"Name":"Goose Creek State Park"},"geometry":{"type":"Point","coordinates":[-76.90842202916367,35.470595794869354]}},{"type":"Feature","properties":{"Name":"Carolina Beach State Park"},"geometry":{"type":"Point","coordinates":[-77.91251183476123,34.04508131709365]}},{"type":"Feature","properties":{"Name":"Jockey's Ridge State Park"},"geometry":{"type":"Point","coordinates":[-75.63420933769183,35.961081531537914]}},{"type":"Feature","properties":{"Name":"Jones Lake State Park"},"geometry":{"type":"Point","coordinates":[-78.61949745008741,34.697344695735936]}},{"type":"Feature","properties":{"Name":"Merchants Millpond State Park"},"geometry":{"type":"Point","coordinates":[-76.67852014352721,36.43428314056669]}},{"type":"Feature","properties":{"Name":"Morrow Mountain State Park"},"geometry":{"type":"Point","coordinates":[-80.0839972395689,35.36779739121582]}},{"type":"Feature","properties":{"Name":"Raven Rock State Park"},"geometry":{"type":"Point","coordinates":[-78.90380821141932,35.4662657172877]}},{"type":"Feature","properties":{"Name":"Eno River State Park"},"geometry":{"type":"Point","coordinates":[-79.01950399470428,36.08014182520435]}},{"type":"Feature","properties":{"Name":"Hanging Rock State Park"},"geometry":{"type":"Point","coordinates":[-80.26303211843485,36.39486315537137]}},{"type":"Feature","properties":{"Name":"Stone Mountain State Park"},"geometry":{"type":"Point","coordinates":[-81.06772035192121,36.39923633215136]}},{"type":"Feature","properties":{"Name":"Gorges State Park"},"geometry":{"type":"Point","coordinates":[-82.9081983837282,35.08924746089663]}},{"type":"Feature","properties":{"Name":"Chimney Rock State Park"},"geometry":{"type":"Point","coordinates":[-82.25238973540283,35.41786554562415]}},{"type":"Feature","properties":{"Name":"Mount Mitchell State Park"},"geometry":{"type":"Point","coordinates":[-82.25976143492294,35.78637497685126]}},{"type":"Feature","properties":{"Name":"Grandfather Mountain State Park"},"geometry":{"type":"Point","coordinates":[-81.80524840370825,36.11197180208492]}},{"type":"Feature","properties":{"Name":"Pilot Mountain State Park"},"geometry":{"type":"Point","coordinates":[-80.47579671066431,36.307988600593646]}},{"type":"Feature","properties":{"Name":"Goose Creek State Park"},"geometry":{"type":"Point","coordinates":[-76.90842202916367,35.470595794869354]}},{"type":"Feature","properties":{"Name":"Carolina Beach State Park"},"geometry":{"type":"Point","coordinates":[-77.91251183476123,34.04508131709365]}},{"type":"Feature","properties":{"Name":"Jockey's Ridge State Park"},"geometry":{"type":"Point","coordinates":[-75.63420933769183,35.961081531537914]}},{"type":"Feature","properties":{"Name":"Jones Lake State Park"},"geometry":{"type":"Point","coordinates":[-78.61949745008741,34.697344695735936]}},{"type":"Feature","properties":{"Name":"Merchants Millpond State Park"},"geometry":{"type":"Point","coordinates":[-76.67852014352721,36.43428314056669]}},{"type":"Feature","properties":{"Name":"Morrow Mountain State Park"},"geometry":{"type":"Point","coordinates":[-80.0839972395689,35.36779739121582]}},{"type":"Feature","properties":{"Name":"Raven Rock State Park"},"geometry":{"type":"Point","coordinates":[-78.90380821141932,35.4662657172877]}},{"type":"Feature","properties":{"Name":"Eno River State Park"},"geometry":{"type":"Point","coordinates":[-79.01950399470428,36.08014182520435]}},{"type":"Feature","properties":{"Name":"Hanging Rock State Park"},"geometry":{"type":"Point","coordinates":[-80.26303211843485,36.39486315537137]}},{"type":"Feature","properties":{"Name":"Stone Mountain State Park"},"geometry":{"type":"Point","coordinates":[-81.06772035192121,36.39923633215136]}},{"type":"Feature","properties":{"Name":"Gorges State Park"},"geometry":{"type":"Point","coordinates":[-82.9081983837282,35.08924746089663]}},{"type":"Feature","properties":{"Name":"Chimney Rock State Park"},"geometry":{"type":"Point","coordinates":[-82.25238973540283,35.41786554562415]}},{"type":"Feature","properties":{"Name":"Mount Mitchell State Park"},"geometry":{"type":"Point","coordinates":[-82.25976143492294,35.78637497685126]}},{"type":"Feature","properties":{"Name":"Grandfather Mountain State Park"},"geometry":{"type":"Point","coordinates":[-81.80524840370825,36.11197180208492]}}]}